name,latitude,longitude,prefecture,description,url
清滝トンネル,35.033448,135.660575,京都府,清滝トンネルとは、京都府京都市にあるトンネルの心霊スポットです。老爺、動物、少年の霊が目撃されています。,https://ghostmap.jp/spotdetail.php?spotcd=26&utm_source=mymap
深泥池,35.057716,135.768449,京都府,深泥池とは、京都府京都市にある湖（池）・ダムの心霊スポットです。動物、少女、正体不明の霊が目撃されています。,https://ghostmap.jp/spotdetail.php?spotcd=56&utm_source=mymap
船岡山,35.039518,135.74221,京都府,船岡山とは、京都府京都市にある山・森の心霊スポットです。女性、男性、老婆の霊が目撃されています。,https://ghostmap.jp/spotdetail.php?spotcd=57&utm_source=mymap
将軍塚,35.002046,135.787167,京都府,将軍塚とは、京都府京都市にある墓地・慰霊碑の心霊スポットです。少年、正体不明、男性の霊が目撃されています。,https://ghostmap.jp/spotdetail.php?spotcd=58&utm_source=mymap
野間トンネル,34.933714,135.475955,京都府,野間トンネルとは、大阪府豊能町にあるトンネルの心霊スポットです。男性、老婆、正体不明の霊が目撃されています。,https://ghostmap.jp/spotdetail.php?spotcd=59&utm_source=mymap
妙見山（しおき場）,34.935736,135.471423,京都府,妙見山（しおき場）とは、大阪府能勢町にある山・森の心霊スポットです。少女、男性、動物の霊が目撃されています。,https://ghostmap.jp/spotdetail.php?spotcd=60&utm_source=mymap
首塚大明神,34.987034,135.639484,京都府,首塚大明神とは、京都府京都市にある神社・寺の心霊スポットです。女性、少年、老婆の霊が目撃されています。,https://ghostmap.jp/spotdetail.php?spotcd=182&utm_source=mymap
笠置トンネル,34.760345,135.947453,京都府,笠置トンネルとは、京都府笠置町にあるトンネルの心霊スポットです。少年、正体不明、少女の霊が目撃されています。,https://ghostmap.jp/spotdetail.php?spotcd=216&utm_source=mymap
メタボ広沢,35.020809,135.686475,京都府,メタボ広沢とは、京都府京都市にある住居の心霊スポットです。少年、正体不明、男性の霊が目撃されています。,https://ghostmap.jp/spotdetail.php?spotcd=218&utm_source=mymap
血の池,35.033199,135.673459,京都府,血の池とは、京都府京都市にある湖（池）・ダムの心霊スポットです。少年、正体不明、女性の霊が目撃されています。,https://ghostmap.jp/spotdetail.php?spotcd=534&utm_source=mymap
落合橋と赤橋トンネル,35.031674,135.650706,京都府,落合橋と赤橋トンネルとは、京都府京都市にある橋の心霊スポットです。正体不明、少女、女性の霊が目撃されています。,https://ghostmap.jp/spotdetail.php?spotcd=535&utm_source=mymap
泉の広場,34.702005,135.501896,京都府,泉の広場とは、大阪府大阪市にあるその他の心霊スポットです。男性、老爺、少年の霊が目撃されています。,https://ghostmap.jp/spotdetail.php?spotcd=541&utm_source=mymap
一庫ダム（龍化トンネル）,34.924073,135.409727,京都府,一庫ダム（龍化トンネル）とは、兵庫県猪名川町にあるトンネルの心霊スポットです。老爺、女性、少女の霊が目撃されています。,https://ghostmap.jp/spotdetail.php?spotcd=556&utm_source=mymap
ロシア病院,35.497594,135.443907,京都府,ロシア病院とは、京都府舞鶴市にある病院の心霊スポットです。老婆、女性、男性の霊が目撃されています。,https://ghostmap.jp/spotdetail.php?spotcd=602&utm_source=mymap
比叡山回転展望閣,35.064654,135.829008,京都府,比叡山回転展望閣とは、京都府京都市にある公園・城跡の心霊スポットです。老爺、男性、少女の霊が目撃されています。,https://ghostmap.jp/spotdetail.php?spotcd=609&utm_source=mymap
魔のカーブ（京都）,34.958633,135.680399,京都府,魔のカーブ（京都）とは、京都府京都市にある道・峠の心霊スポットです。少年、正体不明、老婆の霊が目撃されています。,https://ghostmap.jp/spotdetail.php?spotcd=696&utm_source=mymap
老ノ坂バス停,34.991615,135.638192,京都府,老ノ坂バス停とは、京都府亀岡市にあるその他の心霊スポットです。正体不明、老爺、老婆の霊が目撃されています。,https://ghostmap.jp/spotdetail.php?spotcd=700&utm_source=mymap
天蓋の花公園,34.980287,135.660385,京都府,天蓋の花公園とは、京都府京都市にある公園・城跡の心霊スポットです。老爺、少女、正体不明の霊が目撃されています。,https://ghostmap.jp/spotdetail.php?spotcd=702&utm_source=mymap
石澄の滝までの道中の廃墟群,34.840258,135.454061,京都府,石澄の滝までの道中の廃墟群とは、大阪府箕面市にある村・集落の心霊スポットです。少年、動物、老婆の霊が目撃されています。,https://ghostmap.jp/spotdetail.php?spotcd=804&utm_source=mymap
箕面の滝,34.852502,135.472017,京都府,箕面の滝とは、大阪府箕面市にある川・滝の心霊スポットです。女性、動物、男性の霊が目撃されています。,https://ghostmap.jp/spotdetail.php?spotcd=872&utm_source=mymap
太秦駅,35.017049,135.700203,京都府,太秦駅とは、京都府京都市にある駅・踏切の心霊スポットです。老婆、正体不明、女性の霊が目撃されています。,https://ghostmap.jp/spotdetail.php?spotcd=944&utm_source=mymap
JR保津峡駅,35.02286,135.639928,京都府,JR保津峡駅とは、京都府亀岡市にある駅・踏切の心霊スポットです。正体不明、動物、女性の霊が目撃されています。,https://ghostmap.jp/spotdetail.php?spotcd=945&utm_source=mymap
源氏の滝,34.79021,135.704114,京都府,源氏の滝とは、大阪府交野市にある川・滝の心霊スポットです。男性、少女、女性の霊が目撃されています。,https://ghostmap.jp/spotdetail.php?spotcd=974&utm_source=mymap
老ノ坂トンネル,34.989723,135.63618,京都府,老ノ坂トンネルとは、京都府亀岡市にあるトンネルの心霊スポットです。正体不明、動物、少年の霊が目撃されています。,https://ghostmap.jp/spotdetail.php?spotcd=983&utm_source=mymap
保津川,35.017336,135.587664,京都府,保津川とは、京都府亀岡市にある川・滝の心霊スポットです。女性、少女、老婆の霊が目撃されています。,https://ghostmap.jp/spotdetail.php?spotcd=984&utm_source=mymap
五月山,34.837759,135.439078,京都府,五月山とは、大阪府池田市にある山・森の心霊スポットです。男性、老婆、動物の霊が目撃されています。,https://ghostmap.jp/spotdetail.php?spotcd=1074&utm_source=mymap
象の像がある岩滝寺,34.879031,135.628292,京都府,象の像がある岩滝寺とは、大阪府高槻市にある神社・寺の心霊スポットです。男性、少年、老婆の霊が目撃されています。,https://ghostmap.jp/spotdetail.php?spotcd=1097&utm_source=mymap
貴船神社,35.121585,135.762915,京都府,貴船神社とは、京都府京都市にある神社・寺の心霊スポットです。男性、正体不明、女性の霊が目撃されています。,https://ghostmap.jp/spotdetail.php?spotcd=1101&utm_source=mymap
くろんど池,34.762231,135.714386,京都府,くろんど池とは、奈良県生駒市にある湖（池）・ダムの心霊スポットです。老爺、老婆、正体不明の霊が目撃されています。,https://ghostmap.jp/spotdetail.php?spotcd=1222&utm_source=mymap
鶴見緑地公園,34.714415,135.580279,京都府,鶴見緑地公園とは、大阪府大阪市にある公園・城跡の心霊スポットです。女性、動物、少女の霊が目撃されています。,https://ghostmap.jp/spotdetail.php?spotcd=1402&utm_source=mymap
アジャリの森（歩人山神社）,34.842998,135.604023,京都府,アジャリの森（歩人山神社）とは、大阪府高槻市にある山・森の心霊スポットです。少女、女性、正体不明の霊が目撃されています。,https://ghostmap.jp/spotdetail.php?spotcd=1404&utm_source=mymap
モーテルサンリバー,34.988983,135.636614,京都府,モーテルサンリバーとは、京都府亀岡市にあるホテル・旅館の心霊スポットです。動物、少年、老婆の霊が目撃されています。,https://ghostmap.jp/spotdetail.php?spotcd=1436&utm_source=mymap
元旅館の廃屋,34.885047,135.698212,京都府,元旅館の廃屋とは、京都府八幡市にあるホテル・旅館の心霊スポットです。女性、正体不明、男性の霊が目撃されています。,https://ghostmap.jp/spotdetail.php?spotcd=1502&utm_source=mymap
山中越え,35.040402,135.814529,京都府,山中越えとは、京都府京都市にある道・峠の心霊スポットです。男性、正体不明、少女の霊が目撃されています。,https://ghostmap.jp/spotdetail.php?spotcd=1902&utm_source=mymap
魑魅魍魎狩籠の丘,35.076378,135.83587,京都府,魑魅魍魎狩籠の丘とは、滋賀県大津市にあるその他の心霊スポットです。正体不明、女性、動物の霊が目撃されています。,https://ghostmap.jp/spotdetail.php?spotcd=2088&utm_source=mymap
大渕池,34.709218,135.748515,京都府,大渕池とは、奈良県奈良市にある湖（池）・ダムの心霊スポットです。少年、正体不明、女性の霊が目撃されています。,https://ghostmap.jp/spotdetail.php?spotcd=2169&utm_source=mymap
曼殊院門跡,35.048909,135.802935,京都府,曼殊院門跡とは、京都府京都市にある神社・寺の心霊スポットです。正体不明、男性、女性の霊が目撃されています。,https://ghostmap.jp/spotdetail.php?spotcd=2197&utm_source=mymap
服部天神駅前のクスノキ,34.763444,135.475436,京都府,服部天神駅前のクスノキとは、大阪府豊中市にある駅・踏切の心霊スポットです。正体不明、女性、動物の霊が目撃されています。,https://ghostmap.jp/spotdetail.php?spotcd=2316&utm_source=mymap
三段池公園,35.309994,135.136162,京都府,三段池公園とは、京都府福知山市にある公園・城跡の心霊スポットです。少年、男性、老爺の霊が目撃されています。,https://ghostmap.jp/spotdetail.php?spotcd=2360&utm_source=mymap
永谷集落の廃寺(長泉寺?)　,35.377108,135.742197,京都府,永谷集落の廃寺(長泉寺?)　とは、福井県おおい町にある神社・寺の心霊スポットです。女性、正体不明、男性の霊が目撃されています。,https://ghostmap.jp/spotdetail.php?spotcd=2409&utm_source=mymap
野宮踏切,35.018163,135.674257,京都府,野宮踏切とは、京都府京都市にある駅・踏切の心霊スポットです。男性、正体不明、少女の霊が目撃されています。,https://ghostmap.jp/spotdetail.php?spotcd=2529&utm_source=mymap
天若トンネル,35.138941,135.531569,京都府,天若トンネルとは、京都府南丹市にあるトンネルの心霊スポットです。少女、女性、男性の霊が目撃されています。,https://ghostmap.jp/spotdetail.php?spotcd=2650&utm_source=mymap
京都御苑の廃トイレ,35.017591,135.762553,京都府,京都御苑の廃トイレとは、京都府京都市にあるその他の心霊スポットです。少女、女性、男性の霊が目撃されています。,https://ghostmap.jp/spotdetail.php?spotcd=2698&utm_source=mymap
墓池,35.058992,135.73934,京都府,墓池とは、京都府京都市にある湖（池）・ダムの心霊スポットです。老爺、女性、老婆の霊が目撃されています。,https://ghostmap.jp/spotdetail.php?spotcd=2780&utm_source=mymap
山田池公園,34.819855,135.689457,京都府,山田池公園とは、大阪府枚方市にある公園・城跡の心霊スポットです。少年、女性、老爺の霊が目撃されています。,https://ghostmap.jp/spotdetail.php?spotcd=2790&utm_source=mymap
耳原公園,34.840202,135.559102,京都府,耳原公園とは、大阪府茨木市にある公園・城跡の心霊スポットです。動物、正体不明、老爺の霊が目撃されています。,https://ghostmap.jp/spotdetail.php?spotcd=2794&utm_source=mymap
新幹線公園,34.775063,135.566676,京都府,新幹線公園とは、大阪府摂津市にある公園・城跡の心霊スポットです。正体不明、少年、男性の霊が目撃されています。,https://ghostmap.jp/spotdetail.php?spotcd=2795&utm_source=mymap
西河原公園,34.833004,135.57395,京都府,西河原公園とは、大阪府茨木市にある公園・城跡の心霊スポットです。老婆、正体不明、動物の霊が目撃されています。,https://ghostmap.jp/spotdetail.php?spotcd=2796&utm_source=mymap
市場池公園,34.787479,135.538716,京都府,市場池公園とは、大阪府摂津市にある公園・城跡の心霊スポットです。少年、正体不明、女性の霊が目撃されています。,https://ghostmap.jp/spotdetail.php?spotcd=2806&utm_source=mymap
試峠,35.03413,135.660626,京都府,試峠とは、京都府京都市にある道・峠の心霊スポットです。少女、老婆、正体不明の霊が目撃されています。,https://ghostmap.jp/spotdetail.php?spotcd=2858&utm_source=mymap
樫田トンネル,34.964932,135.58797,京都府,樫田トンネルとは、大阪府高槻市にあるトンネルの心霊スポットです。老爺、正体不明、動物の霊が目撃されています。,https://ghostmap.jp/spotdetail.php?spotcd=2862&utm_source=mymap
淀川橋梁(赤川鉄橋),34.730503,135.526872,京都府,淀川橋梁(赤川鉄橋)とは、大阪府大阪市にある橋の心霊スポットです。少女、女性、老婆の霊が目撃されています。,https://ghostmap.jp/spotdetail.php?spotcd=2963&utm_source=mymap
農大の化けトン,35.323699,135.240051,京都府,農大の化けトンとは、京都府綾部市にあるトンネルの心霊スポットです。正体不明、女性、少年の霊が目撃されています。,https://ghostmap.jp/spotdetail.php?spotcd=2977&utm_source=mymap
夜逃げ中国人一家の洋館,35.319312,135.225442,京都府,夜逃げ中国人一家の洋館とは、京都府綾部市にある住居の心霊スポットです。正体不明、女性、老婆の霊が目撃されています。,https://ghostmap.jp/spotdetail.php?spotcd=2978&utm_source=mymap
千日墓地,34.7293,135.879625,京都府,千日墓地とは、京都府木津川市にある墓地・慰霊碑の心霊スポットです。老爺、少年、正体不明の霊が目撃されています。,https://ghostmap.jp/spotdetail.php?spotcd=2988&utm_source=mymap
府道47号線付近,34.756722,135.848794,京都府,府道47号線付近とは、京都府木津川市にある道・峠の心霊スポットです。男性、少女、正体不明の霊が目撃されています。,https://ghostmap.jp/spotdetail.php?spotcd=2991&utm_source=mymap
宝ヶ池狐坂,35.054496,135.777461,京都府,宝ヶ池狐坂とは、京都府京都市にある道・峠の心霊スポットです。正体不明、女性、老婆の霊が目撃されています。,https://ghostmap.jp/spotdetail.php?spotcd=3053&utm_source=mymap
宝池隧道(宝ヶ池トンネル),35.05801,135.777226,京都府,宝池隧道(宝ヶ池トンネル)とは、京都府京都市にあるトンネルの心霊スポットです。老婆、正体不明、少女の霊が目撃されています。,https://ghostmap.jp/spotdetail.php?spotcd=3054&utm_source=mymap
小倉池,35.018035,135.669992,京都府,小倉池とは、京都府京都市にある湖（池）・ダムの心霊スポットです。女性、男性、老爺の霊が目撃されています。,https://ghostmap.jp/spotdetail.php?spotcd=3070&utm_source=mymap
大沢の杉の木,34.914792,135.64182,京都府,大沢の杉の木とは、大阪府島本町にある樹木の心霊スポットです。女性、動物、老婆の霊が目撃されています。,https://ghostmap.jp/spotdetail.php?spotcd=3071&utm_source=mymap
京阪萱島駅のクスノキ,34.747287,135.611388,京都府,京阪萱島駅のクスノキとは、大阪府寝屋川市にある樹木の心霊スポットです。正体不明、少女、女性の霊が目撃されています。,https://ghostmap.jp/spotdetail.php?spotcd=3126&utm_source=mymap
六角獄舎の首洗井,35.007345,135.746822,京都府,六角獄舎の首洗井とは、京都府京都市にある墓地・慰霊碑の心霊スポットです。女性、正体不明、男性の霊が目撃されています。,https://ghostmap.jp/spotdetail.php?spotcd=3211&utm_source=mymap
十三大橋,34.71419,135.486027,京都府,十三大橋とは、大阪府大阪市にある橋の心霊スポットです。女性、老婆、正体不明の霊が目撃されています。,https://ghostmap.jp/spotdetail.php?spotcd=3215&utm_source=mymap
円山公園の弁天堂前公衆トイレ,35.003285,135.783322,京都府,円山公園の弁天堂前公衆トイレとは、京都府京都市にある公園・城跡の心霊スポットです。男性、女性、少年の霊が目撃されています。,https://ghostmap.jp/spotdetail.php?spotcd=3240&utm_source=mymap
岩倉児童公園,35.07918,135.782361,京都府,岩倉児童公園とは、京都府京都市にある公園・城跡の心霊スポットです。男性、少女、正体不明の霊が目撃されています。,https://ghostmap.jp/spotdetail.php?spotcd=3246&utm_source=mymap
日吉ダム(天若湖)　,35.147735,135.518053,京都府,日吉ダム(天若湖)　とは、京都府南丹市にある湖（池）・ダムの心霊スポットです。老婆、女性、老爺の霊が目撃されています。,https://ghostmap.jp/spotdetail.php?spotcd=3259&utm_source=mymap
念仏峠,35.451334,135.282336,京都府,念仏峠とは、京都府舞鶴市にある道・峠の心霊スポットです。男性、老爺、正体不明の霊が目撃されています。,https://ghostmap.jp/spotdetail.php?spotcd=3267&utm_source=mymap
粟田口刑場跡,35.000674,135.792963,京都府,粟田口刑場跡とは、京都府京都市にある墓地・慰霊碑の心霊スポットです。男性、老爺、少年の霊が目撃されています。,https://ghostmap.jp/spotdetail.php?spotcd=3273&utm_source=mymap
沢良宜公園 ,34.787953,135.56463,京都府,沢良宜公園 とは、大阪府茨木市にある公園・城跡の心霊スポットです。正体不明、少年、女性の霊が目撃されています。,https://ghostmap.jp/spotdetail.php?spotcd=3279&utm_source=mymap
岩屋山志明院,35.136064,135.70942,京都府,岩屋山志明院とは、京都府京都市にある神社・寺の心霊スポットです。正体不明、女性、男性の霊が目撃されています。,https://ghostmap.jp/spotdetail.php?spotcd=3280&utm_source=mymap
府道40号線の幽霊街道(静原の幽霊),35.09821,135.772673,京都府,府道40号線の幽霊街道(静原の幽霊)とは、京都府京都市にある道・峠の心霊スポットです。老婆、正体不明、女性の霊が目撃されています。,https://ghostmap.jp/spotdetail.php?spotcd=3290&utm_source=mymap
舞鶴クレインブリッジ,35.508548,135.391459,京都府,舞鶴クレインブリッジとは、京都府舞鶴市にある橋の心霊スポットです。少女、老婆、正体不明の霊が目撃されています。,https://ghostmap.jp/spotdetail.php?spotcd=3297&utm_source=mymap
五老ヶ岳,35.464812,135.34358,京都府,五老ヶ岳とは、京都府舞鶴市にある公園・城跡の心霊スポットです。正体不明、少女、老婆の霊が目撃されています。,https://ghostmap.jp/spotdetail.php?spotcd=3307&utm_source=mymap
幣久良橋,34.838677,135.559022,京都府,幣久良橋とは、大阪府茨木市にある橋の心霊スポットです。少年、動物、男性の霊が目撃されています。,https://ghostmap.jp/spotdetail.php?spotcd=3336&utm_source=mymap
須波麻神社,34.704564,135.64983,京都府,須波麻神社とは、大阪府大東市にある神社・寺の心霊スポットです。老爺、正体不明、少女の霊が目撃されています。,https://ghostmap.jp/spotdetail.php?spotcd=3350&utm_source=mymap
豊中5ガード下(江坂トンネル),34.765525,135.496602,京都府,豊中5ガード下(江坂トンネル)とは、大阪府吹田市にあるトンネルの心霊スポットです。正体不明、男性、少年の霊が目撃されています。,https://ghostmap.jp/spotdetail.php?spotcd=3355&utm_source=mymap
黒髪橋,34.701696,135.827668,京都府,黒髪橋とは、奈良県奈良市にある橋の心霊スポットです。女性、老婆、男性の霊が目撃されています。,https://ghostmap.jp/spotdetail.php?spotcd=3359&utm_source=mymap
天王山トンネル,34.899091,135.679732,京都府,天王山トンネルとは、京都府大山崎町にあるトンネルの心霊スポットです。正体不明、男性、老爺の霊が目撃されています。,https://ghostmap.jp/spotdetail.php?spotcd=3363&utm_source=mymap
城北公園の千人塚,34.730574,135.536752,京都府,城北公園の千人塚とは、大阪府大阪市にある墓地・慰霊碑の心霊スポットです。正体不明、少年、少女の霊が目撃されています。,https://ghostmap.jp/spotdetail.php?spotcd=3366&utm_source=mymap
千里万博記念公園,34.814128,135.529518,京都府,千里万博記念公園とは、大阪府吹田市にある公園・城跡の心霊スポットです。男性、正体不明、老爺の霊が目撃されています。,https://ghostmap.jp/spotdetail.php?spotcd=3373&utm_source=mymap
来迎寺,34.764346,135.590955,京都府,来迎寺とは、大阪府守口市にある神社・寺の心霊スポットです。老爺、正体不明、男性の霊が目撃されています。,https://ghostmap.jp/spotdetail.php?spotcd=3379&utm_source=mymap
紫金山公園,34.783367,135.530825,京都府,紫金山公園とは、大阪府吹田市にある公園・城跡の心霊スポットです。女性、老爺、正体不明の霊が目撃されています。,https://ghostmap.jp/spotdetail.php?spotcd=3384&utm_source=mymap
岸部南地下道,34.774573,135.538509,京都府,岸部南地下道とは、大阪府吹田市にある道・峠の心霊スポットです。正体不明、女性、少年の霊が目撃されています。,https://ghostmap.jp/spotdetail.php?spotcd=3389&utm_source=mymap
白鳥隧道(双鶴通洞) ,35.456651,135.366442,京都府,白鳥隧道(双鶴通洞) とは、京都府舞鶴市にあるトンネルの心霊スポットです。正体不明、女性、少女の霊が目撃されています。,https://ghostmap.jp/spotdetail.php?spotcd=3406&utm_source=mymap
黒髪山の廃墟,34.702692,135.821867,京都府,黒髪山の廃墟とは、奈良県奈良市にある商業施設の心霊スポットです。老爺、男性、正体不明の霊が目撃されています。,https://ghostmap.jp/spotdetail.php?spotcd=3414&utm_source=mymap
扇町公園,34.702743,135.508275,京都府,扇町公園とは、大阪府大阪市にある公園・城跡の心霊スポットです。少女、正体不明、老爺の霊が目撃されています。,https://ghostmap.jp/spotdetail.php?spotcd=3445&utm_source=mymap
旧愛宕山ケーブル跡,35.048735,135.639135,京都府,旧愛宕山ケーブル跡とは、京都府京都市にある山・森の心霊スポットです。老爺、少女、正体不明の霊が目撃されています。,https://ghostmap.jp/spotdetail.php?spotcd=3598&utm_source=mymap
桜町函道,34.799673,135.466508,京都府,桜町函道とは、大阪府豊中市にあるトンネルの心霊スポットです。正体不明、男性、動物の霊が目撃されています。,https://ghostmap.jp/spotdetail.php?spotcd=3612&utm_source=mymap
ホテル関西「308号室」,34.700569,135.503386,京都府,ホテル関西「308号室」とは、大阪府大阪市にあるホテル・旅館の心霊スポットです。少年、正体不明、老爺の霊が目撃されています。,https://ghostmap.jp/spotdetail.php?spotcd=3625&utm_source=mymap
服部緑地公園,34.780257,135.49098,京都府,服部緑地公園とは、大阪府豊中市にある公園・城跡の心霊スポットです。少女、正体不明、男性の霊が目撃されています。,https://ghostmap.jp/spotdetail.php?spotcd=3639&utm_source=mymap
化野念仏寺,35.026871,135.665079,京都府,化野念仏寺とは、京都府京都市にある墓地・慰霊碑の心霊スポットです。少女、女性、正体不明の霊が目撃されています。,https://ghostmap.jp/spotdetail.php?spotcd=3687&utm_source=mymap
長柄橋,34.720854,135.510163,京都府,長柄橋とは、大阪府大阪市にある橋の心霊スポットです。少女、少年、女性の霊が目撃されています。,https://ghostmap.jp/spotdetail.php?spotcd=3729&utm_source=mymap
一条戻橋,35.026271,135.751937,京都府,一条戻橋とは、京都府京都市にある橋の心霊スポットです。男性、女性、動物の霊が目撃されています。,https://ghostmap.jp/spotdetail.php?spotcd=3766&utm_source=mymap
落合谷橋,34.845424,135.471945,京都府,落合谷橋とは、大阪府箕面市にある橋の心霊スポットです。少年、女性、男性の霊が目撃されています。,https://ghostmap.jp/spotdetail.php?spotcd=3796&utm_source=mymap
福西公園,34.960395,135.68151,京都府,福西公園とは、京都府京都市にある公園・城跡の心霊スポットです。老爺、少年、少女の霊が目撃されています。,https://ghostmap.jp/spotdetail.php?spotcd=3811&utm_source=mymap
三条河原と三条大橋,35.009006,135.771562,京都府,三条河原と三条大橋とは、京都府京都市にある川・滝の心霊スポットです。少年、正体不明、少女の霊が目撃されています。,https://ghostmap.jp/spotdetail.php?spotcd=3878&utm_source=mymap
紫竹山稚児ヶ滝不動明王,35.385314,135.312711,京都府,紫竹山稚児ヶ滝不動明王とは、京都府舞鶴市にある川・滝の心霊スポットです。正体不明、男性、女性の霊が目撃されています。,https://ghostmap.jp/spotdetail.php?spotcd=3886&utm_source=mymap
塚口西踏切道,34.752871,135.415013,京都府,塚口西踏切道とは、兵庫県尼崎市にある駅・踏切の心霊スポットです。女性、正体不明、少女の霊が目撃されています。,https://ghostmap.jp/spotdetail.php?spotcd=3910&utm_source=mymap
トラックヤード横にある巨大地蔵,34.752389,135.416778,京都府,トラックヤード横にある巨大地蔵とは、兵庫県尼崎市にある墓地・慰霊碑の心霊スポットです。男性、正体不明、女性の霊が目撃されています。,https://ghostmap.jp/spotdetail.php?spotcd=3911&utm_source=mymap
はや山荘,34.705489,135.65036,京都府,はや山荘とは、大阪府大東市にある商業施設の心霊スポットです。女性、少女、老爺の霊が目撃されています。,https://ghostmap.jp/spotdetail.php?spotcd=3915&utm_source=mymap
班女塚,35.00083,135.757384,京都府,班女塚とは、京都府京都市にある墓地・慰霊碑の心霊スポットです。動物、正体不明、老爺の霊が目撃されています。,https://ghostmap.jp/spotdetail.php?spotcd=3922&utm_source=mymap
大原一家心中の場所,35.151666,135.834247,京都府,大原一家心中の場所とは、京都府京都市にある山・森の心霊スポットです。女性、正体不明、男性の霊が目撃されています。,https://ghostmap.jp/spotdetail.php?spotcd=3928&utm_source=mymap
国分寺公園(天六ガス爆発事故犠牲者慰霊碑),34.710039,135.514781,京都府,国分寺公園(天六ガス爆発事故犠牲者慰霊碑)とは、大阪府大阪市にある公園・城跡の心霊スポットです。女性、老婆、老爺の霊が目撃されています。,https://ghostmap.jp/spotdetail.php?spotcd=3933&utm_source=mymap
深見隧道(旧深見トンネル),35.251763,135.638685,京都府,深見隧道(旧深見トンネル)とは、京都府京都市にあるトンネルの心霊スポットです。老爺、少年、老婆の霊が目撃されています。,https://ghostmap.jp/spotdetail.php?spotcd=3982&utm_source=mymap
犬飼邸(跡地),34.839648,135.486363,京都府,犬飼邸(跡地)とは、大阪府箕面市にある住居の心霊スポットです。女性、少女、老婆の霊が目撃されています。,https://ghostmap.jp/spotdetail.php?spotcd=4042&utm_source=mymap
千里中央公園,34.8129,135.507109,京都府,千里中央公園とは、大阪府豊中市にある公園・城跡の心霊スポットです。男性、女性、正体不明の霊が目撃されています。,https://ghostmap.jp/spotdetail.php?spotcd=4146&utm_source=mymap
サンホテルやまね,35.496232,135.739808,京都府,サンホテルやまねとは、福井県小浜市にあるホテル・旅館の心霊スポットです。少女、正体不明、女性の霊が目撃されています。,https://ghostmap.jp/spotdetail.php?spotcd=4190&utm_source=mymap
室池,34.723216,135.670515,京都府,室池とは、大阪府四條畷市にある湖（池）・ダムの心霊スポットです。少女、老爺、女性の霊が目撃されています。,https://ghostmap.jp/spotdetail.php?spotcd=4191&utm_source=mymap
新老ノ坂トンネル,34.988714,135.63577,京都府,新老ノ坂トンネルとは、京都府亀岡市にあるトンネルの心霊スポットです。少女、男性、正体不明の霊が目撃されています。,https://ghostmap.jp/spotdetail.php?spotcd=4201&utm_source=mymap
二ノ宮神社,34.854081,135.680573,京都府,二ノ宮神社とは、大阪府枚方市にある神社・寺の心霊スポットです。正体不明、男性、女性の霊が目撃されています。,https://ghostmap.jp/spotdetail.php?spotcd=4202&utm_source=mymap
洛西竹林公園,34.95842,135.687614,京都府,洛西竹林公園とは、京都府京都市にある公園・城跡の心霊スポットです。男性、老爺、老婆の霊が目撃されています。,https://ghostmap.jp/spotdetail.php?spotcd=4211&utm_source=mymap
住吉平田神社,34.733201,135.650025,京都府,住吉平田神社とは、大阪府四條畷市にある神社・寺の心霊スポットです。女性、男性、正体不明の霊が目撃されています。,https://ghostmap.jp/spotdetail.php?spotcd=4268&utm_source=mymap
阪奈道路の赤い橋,34.701521,135.658015,京都府,阪奈道路の赤い橋とは、大阪府東大阪市にある橋の心霊スポットです。少女、男性、正体不明の霊が目撃されています。,https://ghostmap.jp/spotdetail.php?spotcd=4294&utm_source=mymap
野里住吉神社,34.709376,135.462829,京都府,野里住吉神社とは、大阪府大阪市にある神社・寺の心霊スポットです。少女、動物、正体不明の霊が目撃されています。,https://ghostmap.jp/spotdetail.php?spotcd=4318&utm_source=mymap
崩池(首吊り池),34.851174,135.560131,京都府,崩池(首吊り池)とは、大阪府茨木市にある湖（池）・ダムの心霊スポットです。老婆、女性、動物の霊が目撃されています。,https://ghostmap.jp/spotdetail.php?spotcd=4345&utm_source=mymap
林病院(摂津の廃病院),34.782085,135.586034,京都府,林病院(摂津の廃病院)とは、大阪府摂津市にある病院の心霊スポットです。少女、女性、正体不明の霊が目撃されています。,https://ghostmap.jp/spotdetail.php?spotcd=4387&utm_source=mymap
飯盛山の廃キャンプ場,34.716093,135.653475,京都府,飯盛山の廃キャンプ場とは、大阪府大東市にある山・森の心霊スポットです。少年、女性、少女の霊が目撃されています。,https://ghostmap.jp/spotdetail.php?spotcd=4398&utm_source=mymap
八瀬の皆殺しの館(八瀬一家心中の家),35.071051,135.810179,京都府,八瀬の皆殺しの館(八瀬一家心中の家)とは、京都府京都市にある住居の心霊スポットです。女性、正体不明、少女の霊が目撃されています。,https://ghostmap.jp/spotdetail.php?spotcd=4400&utm_source=mymap
かじか荘,34.874568,135.589545,京都府,かじか荘とは、大阪府高槻市にあるホテル・旅館の心霊スポットです。男性、女性、正体不明の霊が目撃されています。,https://ghostmap.jp/spotdetail.php?spotcd=4407&utm_source=mymap
富田村踏切,34.835304,135.589312,京都府,富田村踏切とは、大阪府高槻市にある駅・踏切の心霊スポットです。女性、男性、老爺の霊が目撃されています。,https://ghostmap.jp/spotdetail.php?spotcd=4433&utm_source=mymap
摂津峡,34.880662,135.586132,京都府,摂津峡とは、大阪府高槻市にある川・滝の心霊スポットです。少年、男性、女性の霊が目撃されています。,https://ghostmap.jp/spotdetail.php?spotcd=4459&utm_source=mymap
深北緑地,34.72639,135.628855,京都府,深北緑地とは、大阪府大東市にある公園・城跡の心霊スポットです。正体不明、老爺、男性の霊が目撃されています。,https://ghostmap.jp/spotdetail.php?spotcd=4470&utm_source=mymap
千里川土手,34.77146,135.453562,京都府,千里川土手とは、大阪府豊中市にある道・峠の心霊スポットです。女性、少女、男性の霊が目撃されています。,https://ghostmap.jp/spotdetail.php?spotcd=4480&utm_source=mymap
新大阪駅西の地下道(ほっぽう002),34.729588,135.488407,京都府,新大阪駅西の地下道(ほっぽう002)とは、大阪府大阪市にあるトンネルの心霊スポットです。少女、正体不明、男性の霊が目撃されています。,https://ghostmap.jp/spotdetail.php?spotcd=4499&utm_source=mymap
米崎踏切,34.736191,135.640905,京都府,米崎踏切とは、大阪府四條畷市にある駅・踏切の心霊スポットです。男性、正体不明、少女の霊が目撃されています。,https://ghostmap.jp/spotdetail.php?spotcd=4519&utm_source=mymap
中山池(平和台公園),35.005848,135.565772,京都府,中山池(平和台公園)とは、京都府亀岡市にある湖（池）・ダムの心霊スポットです。正体不明、男性、老婆の霊が目撃されています。,https://ghostmap.jp/spotdetail.php?spotcd=4544&utm_source=mymap
香里ヶ丘南公園(ガイコツ山),34.786327,135.645349,京都府,香里ヶ丘南公園(ガイコツ山)とは、大阪府枚方市にある公園・城跡の心霊スポットです。少女、少年、正体不明の霊が目撃されています。,https://ghostmap.jp/spotdetail.php?spotcd=4676&utm_source=mymap
一庫ダム近くの廃屋,34.932693,135.409592,京都府,一庫ダム近くの廃屋とは、兵庫県猪名川町にある住居の心霊スポットです。少女、少年、男性の霊が目撃されています。,https://ghostmap.jp/spotdetail.php?spotcd=4684&utm_source=mymap
枚方大橋南の自転車道トンネル,34.80957,135.632525,京都府,枚方大橋南の自転車道トンネルとは、大阪府枚方市にあるトンネルの心霊スポットです。男性、正体不明、女性の霊が目撃されています。,https://ghostmap.jp/spotdetail.php?spotcd=4695&utm_source=mymap
枚方大橋南側の空地,34.809707,135.632145,京都府,枚方大橋南側の空地とは、大阪府枚方市にあるその他の心霊スポットです。男性、正体不明、女性の霊が目撃されています。,https://ghostmap.jp/spotdetail.php?spotcd=4696&utm_source=mymap
黒髪山排水機場,34.701067,135.821385,京都府,黒髪山排水機場とは、奈良県奈良市にあるその他の心霊スポットです。少年、正体不明、男性の霊が目撃されています。,https://ghostmap.jp/spotdetail.php?spotcd=4699&utm_source=mymap
枚方大橋,34.814057,135.632615,京都府,枚方大橋とは、大阪府高槻市にある橋の心霊スポットです。老爺、老婆、女性の霊が目撃されています。,https://ghostmap.jp/spotdetail.php?spotcd=4732&utm_source=mymap
ぐる坂,34.793696,135.66248,京都府,ぐる坂とは、大阪府枚方市にある道・峠の心霊スポットです。男性、正体不明、少年の霊が目撃されています。,https://ghostmap.jp/spotdetail.php?spotcd=4742&utm_source=mymap
飯盛,35.490939,135.697564,京都府,飯盛とは、福井県小浜市にある海の心霊スポットです。老婆、女性、少女の霊が目撃されています。,https://ghostmap.jp/spotdetail.php?spotcd=4748&utm_source=mymap
ホテルフリージア,34.716673,135.679274,京都府,ホテルフリージアとは、大阪府四條畷市にあるホテル・旅館の心霊スポットです。老婆、男性、老爺の霊が目撃されています。,https://ghostmap.jp/spotdetail.php?spotcd=4756&utm_source=mymap
吉田山公園,35.024611,135.786027,京都府,吉田山公園とは、京都府京都市にある公園・城跡の心霊スポットです。老婆、女性、正体不明の霊が目撃されています。,https://ghostmap.jp/spotdetail.php?spotcd=4822&utm_source=mymap
総持寺駅,34.827081,135.584503,京都府,総持寺駅とは、大阪府茨木市にある駅・踏切の心霊スポットです。老爺、女性、少女の霊が目撃されています。,https://ghostmap.jp/spotdetail.php?spotcd=4836&utm_source=mymap
清阪峠,34.916867,135.556842,京都府,清阪峠とは、大阪府茨木市にある道・峠の心霊スポットです。女性、少年、正体不明の霊が目撃されています。,https://ghostmap.jp/spotdetail.php?spotcd=4863&utm_source=mymap
菅原道踏切,34.745199,135.531105,京都府,菅原道踏切とは、大阪府大阪市にある駅・踏切の心霊スポットです。男性、女性、正体不明の霊が目撃されています。,https://ghostmap.jp/spotdetail.php?spotcd=4879&utm_source=mymap
清滝大神宮社,35.442246,135.016447,京都府,清滝大神宮社とは、兵庫県豊岡市にある神社・寺の心霊スポットです。正体不明、男性、少年の霊が目撃されています。,https://ghostmap.jp/spotdetail.php?spotcd=4889&utm_source=mymap
郡山公園,34.8284,135.547043,京都府,郡山公園とは、大阪府茨木市にある公園・城跡の心霊スポットです。正体不明、少女、少年の霊が目撃されています。,https://ghostmap.jp/spotdetail.php?spotcd=4895&utm_source=mymap
水野病院,34.723772,135.531566,京都府,水野病院とは、大阪府大阪市にある病院の心霊スポットです。少女、正体不明、少年の霊が目撃されています。,https://ghostmap.jp/spotdetail.php?spotcd=5128&utm_source=mymap
エキスポランド,34.805118,135.535252,京都府,エキスポランドとは、大阪府吹田市にある遊園地の心霊スポットです。女性、少女、正体不明の霊が目撃されています。,https://ghostmap.jp/spotdetail.php?spotcd=5169&utm_source=mymap
旧 高木山バス停,34.859226,135.542325,京都府,旧 高木山バス停とは、大阪府茨木市にあるその他の心霊スポットです。老爺、正体不明、男性の霊が目撃されています。,https://ghostmap.jp/spotdetail.php?spotcd=5174&utm_source=mymap
郡津5号踏切,34.790151,135.673154,京都府,郡津5号踏切とは、大阪府交野市にある駅・踏切の心霊スポットです。女性、正体不明、少女の霊が目撃されています。,https://ghostmap.jp/spotdetail.php?spotcd=5179&utm_source=mymap
極楽橋,34.770313,135.648011,京都府,極楽橋とは、大阪府寝屋川市にある橋の心霊スポットです。老爺、少女、男性の霊が目撃されています。,https://ghostmap.jp/spotdetail.php?spotcd=5256&utm_source=mymap
摂津市平和公園 祈る子,34.782151,135.559089,京都府,摂津市平和公園 祈る子とは、大阪府摂津市にある公園・城跡の心霊スポットです。少女、女性、正体不明の霊が目撃されています。,https://ghostmap.jp/spotdetail.php?spotcd=5322&utm_source=mymap
鳥飼大橋,34.758132,135.573521,京都府,鳥飼大橋とは、大阪府守口市にある橋の心霊スポットです。男性、正体不明、女性の霊が目撃されています。,https://ghostmap.jp/spotdetail.php?spotcd=5330&utm_source=mymap
菅原城北大橋,34.73321,135.536356,京都府,菅原城北大橋とは、大阪府大阪市にある橋の心霊スポットです。男性、女性、正体不明の霊が目撃されています。,https://ghostmap.jp/spotdetail.php?spotcd=5341&utm_source=mymap
黒髪山の墓地,34.701674,135.820091,京都府,黒髪山の墓地とは、奈良県奈良市にある墓地・慰霊碑の心霊スポットです。老婆、男性、正体不明の霊が目撃されています。,https://ghostmap.jp/spotdetail.php?spotcd=5342&utm_source=mymap
若山神社(桜井駅跡),34.881029,135.663643,京都府,若山神社(桜井駅跡)とは、大阪府島本町にある公園・城跡の心霊スポットです。老爺、男性、正体不明の霊が目撃されています。,https://ghostmap.jp/spotdetail.php?spotcd=5395&utm_source=mymap
大阪市立旭東中学校,34.717377,135.562388,京都府,大阪市立旭東中学校とは、大阪府大阪市にある学校の心霊スポットです。老爺、少年、女性の霊が目撃されています。,https://ghostmap.jp/spotdetail.php?spotcd=5469&utm_source=mymap
四條畷学園高校,34.731208,135.64049,京都府,四條畷学園高校とは、大阪府大東市にある学校の心霊スポットです。正体不明、老爺、少女の霊が目撃されています。,https://ghostmap.jp/spotdetail.php?spotcd=5613&utm_source=mymap
三津屋の廃墟,34.727118,135.476047,京都府,三津屋の廃墟とは、大阪府大阪市にあるその他の心霊スポットです。男性、正体不明、少女の霊が目撃されています。,https://ghostmap.jp/spotdetail.php?spotcd=5682&utm_source=mymap
座り込む男性,34.740568,135.788875,京都府,座り込む男性とは、京都府木津川市にある公園・城跡の心霊スポットです。老爺、正体不明、男性の霊が目撃されています。,https://ghostmap.jp/spotdetail.php?spotcd=5725&utm_source=mymap
禁野車塚古墳,34.81083,135.657039,京都府,禁野車塚古墳とは、大阪府枚方市にある墓地・慰霊碑の心霊スポットです。少女、動物、正体不明の霊が目撃されています。,https://ghostmap.jp/spotdetail.php?spotcd=5750&utm_source=mymap
箕面隧道,34.861986,135.479301,京都府,箕面隧道とは、大阪府箕面市にあるトンネルの心霊スポットです。少女、正体不明、少年の霊が目撃されています。,https://ghostmap.jp/spotdetail.php?spotcd=5767&utm_source=mymap
箕面川ダム近くの廃橋,34.865233,135.478327,京都府,箕面川ダム近くの廃橋とは、大阪府箕面市にある橋の心霊スポットです。男性、老爺、正体不明の霊が目撃されています。,https://ghostmap.jp/spotdetail.php?spotcd=5789&utm_source=mymap
ホテルロマン,34.718504,135.485036,京都府,ホテルロマンとは、大阪府大阪市にあるホテル・旅館の心霊スポットです。少女、女性、男性の霊が目撃されています。,https://ghostmap.jp/spotdetail.php?spotcd=6029&utm_source=mymap
亀山公園,35.015183,135.671325,京都府,亀山公園とは、京都府京都市にある公園・城跡の心霊スポットです。正体不明、男性、女性の霊が目撃されています。,https://ghostmap.jp/spotdetail.php?spotcd=6033&utm_source=mymap
亀岡17号函渠,35.039596,135.539897,京都府,亀岡17号函渠とは、京都府亀岡市にあるトンネルの心霊スポットです。老爺、動物、女性の霊が目撃されています。,https://ghostmap.jp/spotdetail.php?spotcd=6058&utm_source=mymap
伊丹坂トンネルと伊丹緑地,34.791387,135.416775,京都府,伊丹坂トンネルと伊丹緑地とは、兵庫県伊丹市にあるトンネルの心霊スポットです。正体不明、男性、女性の霊が目撃されています。,https://ghostmap.jp/spotdetail.php?spotcd=6059&utm_source=mymap
止々呂美の廃墟群,34.86504,135.461165,京都府,止々呂美の廃墟群とは、大阪府箕面市にある住居の心霊スポットです。老婆、正体不明、老爺の霊が目撃されています。,https://ghostmap.jp/spotdetail.php?spotcd=6061&utm_source=mymap
霊法山鬼法教,35.099318,135.795908,京都府,霊法山鬼法教とは、京都府京都市にある神社・寺の心霊スポットです。少年、老爺、動物の霊が目撃されています。,https://ghostmap.jp/spotdetail.php?spotcd=6068&utm_source=mymap
古江公園,34.813796,135.513309,京都府,古江公園とは、大阪府吹田市にある公園・城跡の心霊スポットです。男性、正体不明、少年の霊が目撃されています。,https://ghostmap.jp/spotdetail.php?spotcd=6075&utm_source=mymap
清滝フィールドアスレチック跡,35.038749,135.653752,京都府,清滝フィールドアスレチック跡とは、京都府京都市にある遊園地の心霊スポットです。動物、正体不明、女性の霊が目撃されています。,https://ghostmap.jp/spotdetail.php?spotcd=6116&utm_source=mymap
SOSやめてください,34.794189,135.550384,京都府,SOSやめてくださいとは、大阪府吹田市にある学校の心霊スポットです。正体不明、少女、女性の霊が目撃されています。,https://ghostmap.jp/spotdetail.php?spotcd=6117&utm_source=mymap
猪名寺の廃寺跡,34.76923,135.426222,京都府,猪名寺の廃寺跡とは、兵庫県尼崎市にある神社・寺の心霊スポットです。正体不明、男性、女性の霊が目撃されています。,https://ghostmap.jp/spotdetail.php?spotcd=6148&utm_source=mymap
名月姫墓所,34.963385,135.42273,京都府,名月姫墓所とは、大阪府能勢町にある墓地・慰霊碑の心霊スポットです。男性、正体不明、少女の霊が目撃されています。,https://ghostmap.jp/spotdetail.php?spotcd=6401&utm_source=mymap
城北公園公衆トイレ3,34.728346,135.537873,京都府,城北公園公衆トイレ3とは、大阪府大阪市にある公園・城跡の心霊スポットです。男性、少女、女性の霊が目撃されています。,https://ghostmap.jp/spotdetail.php?spotcd=6828&utm_source=mymap
蒼島,35.498082,135.683484,京都府,蒼島とは、福井県小浜市にある神社・寺の心霊スポットです。女性の霊が目撃されています。,https://ghostmap.jp/spotdetail.php?spotcd=7121&utm_source=mymap
頭巾山青少年旅行村,35.394215,135.584963,京都府,頭巾山青少年旅行村とは、福井県おおい町にあるホテル・旅館の心霊スポットです。正体不明の霊が目撃されています。,https://ghostmap.jp/spotdetail.php?spotcd=7135&utm_source=mymap
皇子塚,35.393388,135.750332,京都府,皇子塚とは、福井県おおい町にある墓地・慰霊碑の心霊スポットです。幽霊の目撃情報はありません。,https://ghostmap.jp/spotdetail.php?spotcd=7169&utm_source=mymap
若狭の里公園,35.483623,135.787129,京都府,若狭の里公園とは、福井県小浜市にある公園・城跡の心霊スポットです。幽霊の目撃情報はありません。,https://ghostmap.jp/spotdetail.php?spotcd=7193&utm_source=mymap
小浜城跡,35.50423,135.746309,京都府,小浜城跡とは、福井県小浜市にある公園・城跡の心霊スポットです。男性、少女、女性の霊が目撃されています。,https://ghostmap.jp/spotdetail.php?spotcd=7196&utm_source=mymap
ニソの杜,35.534154,135.658995,京都府,ニソの杜とは、福井県おおい町にある神社・寺の心霊スポットです。幽霊の目撃情報はありません。,https://ghostmap.jp/spotdetail.php?spotcd=7199&utm_source=mymap
比叡山延暦寺,35.070469,135.841098,京都府,比叡山延暦寺とは、滋賀県大津市にある神社・寺の心霊スポットです。幽霊の目撃情報はありません。,https://ghostmap.jp/spotdetail.php?spotcd=7215&utm_source=mymap
塚本児童公園,35.038669,135.79023,京都府,塚本児童公園とは、京都府京都市にある公園・城跡の心霊スポットです。動物、正体不明の霊が目撃されています。,https://ghostmap.jp/spotdetail.php?spotcd=7235&utm_source=mymap
小関越,35.005183,135.843801,京都府,小関越とは、滋賀県大津市にある道・峠の心霊スポットです。幽霊の目撃情報はありません。,https://ghostmap.jp/spotdetail.php?spotcd=7257&utm_source=mymap
大津旧陸軍墓地,35.025112,135.848908,京都府,大津旧陸軍墓地とは、滋賀県大津市にある墓地・慰霊碑の心霊スポットです。幽霊の目撃情報はありません。,https://ghostmap.jp/spotdetail.php?spotcd=7277&utm_source=mymap
菖蒲谷池,35.043269,135.67349,京都府,菖蒲谷池とは、京都府京都市にある湖（池）・ダムの心霊スポットです。幽霊の目撃情報はありません。,https://ghostmap.jp/spotdetail.php?spotcd=7439&utm_source=mymap
切池,34.712793,135.69031,京都府,切池とは、奈良県生駒市にある湖（池）・ダムの心霊スポットです。幽霊の目撃情報はありません。,https://ghostmap.jp/spotdetail.php?spotcd=7444&utm_source=mymap
血の池,34.710641,135.829426,京都府,血の池とは、奈良県奈良市にある道・峠の心霊スポットです。幽霊の目撃情報はありません。,https://ghostmap.jp/spotdetail.php?spotcd=7490&utm_source=mymap
大渕池公園(東地区),34.711244,135.75325,京都府,大渕池公園(東地区)とは、奈良県奈良市にある公園・城跡の心霊スポットです。幽霊の目撃情報はありません。,https://ghostmap.jp/spotdetail.php?spotcd=7493&utm_source=mymap
壬生寺,35.001676,135.74338,京都府,壬生寺とは、京都府京都市にある神社・寺の心霊スポットです。男性、正体不明の霊が目撃されています。,https://ghostmap.jp/spotdetail.php?spotcd=7993&utm_source=mymap
丑寅第一踏切,34.79754,135.555048,京都府,丑寅第一踏切とは、大阪府吹田市にある駅・踏切の心霊スポットです。男性、少女、女性の霊が目撃されています。,https://ghostmap.jp/spotdetail.php?spotcd=8058&utm_source=mymap
刀根山歩道橋,34.800583,135.456821,京都府,刀根山歩道橋とは、大阪府豊中市にある橋の心霊スポットです。正体不明、男性の霊が目撃されています。,https://ghostmap.jp/spotdetail.php?spotcd=8106&utm_source=mymap
